header: 
  seq: 215322
  stamp: 
    secs: 1745597009
    nsecs: 945562157
  frame_id: "base_link"
status: 
  status: 0
  service: 15
latitude: 40.09274055599764
longitude: -88.23577232440284
altitude: 200.81022589535092
position_covariance: [8.45153335831128e-05, 0.0, 0.0, 0.0, 8.751222776481882e-05, 0.0, 0.0, 0.0, 0.00010088986891787499]
position_covariance_type: 2
---
header: 
  seq: 215323
  stamp: 
    secs: 1745597009
    nsecs: 955623900
  frame_id: "base_link"
status: 
  status: 0
  service: 15
latitude: 40.09274055612163
longitude: -88.2357723245656
altitude: 200.81023032790776
position_covariance: [8.822281961329281e-05, 0.0, 0.0, 0.0, 9.12497634999454e-05, 0.0, 0.0, 0.0, 0.00010399275925010443]
position_covariance_type: 2
---
header: 
  seq: 215324
  stamp: 
    secs: 1745597009
    nsecs: 965534342
  frame_id: "base_link"
status: 
  status: 0
  service: 15
latitude: 40.092740556317246
longitude: -88.2357723246585
altitude: 200.81024210428953
position_covariance: [9.206458344124258e-05, 0.0, 0.0, 0.0, 9.512189717497677e-05, 0.0, 0.0, 0.0, 0.00010719065903685987]
position_covariance_type: 2
---
header: 
  seq: 215325
  stamp: 
    secs: 1745597009
    nsecs: 975604450
  frame_id: "base_link"
status: 
  status: 0
  service: 15
latitude: 40.09274055644023
longitude: -88.23577232482408
altitude: 200.8102563038494
position_covariance: [9.604356455383822e-05, 0.0, 0.0, 0.0, 9.913162648444995e-05, 0.0, 0.0, 0.0, 0.00011048508895328268]
position_covariance_type: 2
---
header: 
  seq: 215326
  stamp: 
    secs: 1745597009
    nsecs: 985570467
  frame_id: "base_link"
status: 
  status: 0
  service: 15
latitude: 40.092740556552336
longitude: -88.23577232500705
altitude: 200.8102670169455
position_covariance: [0.0001001627097139135, 0.0, 0.0, 0.0, 0.00010328185453545302, 0.0, 0.0, 0.0, 0.00011387757695047185]
position_covariance_type: 2
---
header: 
  seq: 215327
  stamp: 
    secs: 1745597009
    nsecs: 995605454
  frame_id: "base_link"
status: 
  status: 0
  service: 15
latitude: 40.09274055668851
longitude: -88.23577232515684
altitude: 200.81027484585104
position_covariance: [0.00010442501661600545, 0.0, 0.0, 0.0, 0.00010757561540231109, 0.0, 0.0, 0.0, 0.00011736968735931441]
position_covariance_type: 2
---
header: 
  seq: 215328
  stamp: 
    secs: 1745597010
    nsecs:   5525224
  frame_id: "base_link"
status: 
  status: 0
  service: 15
latitude: 40.09274055681504
longitude: -88.23577232530819
altitude: 200.81028358067175
position_covariance: [0.00010883349023060873, 0.0, 0.0, 0.0, 0.00011201592133147642, 0.0, 0.0, 0.0, 0.00012096293357899413]
position_covariance_type: 2
---
header: 
  seq: 215329
  stamp: 
    secs: 1745597010
    nsecs:  15580743
  frame_id: "base_link"
status: 
  status: 0
  service: 15
latitude: 40.092740556950666
longitude: -88.23577232544133
altitude: 200.81029216674256
position_covariance: [0.00011339123011566699, 0.0, 0.0, 0.0, 0.00011660585005301982, 0.0, 0.0, 0.0, 0.0001246588653884828]
position_covariance_type: 2
---
header: 
  seq: 215330
  stamp: 
    secs: 1745597010
    nsecs:  25429991
  frame_id: "base_link"
status: 
  status: 0
  service: 15
latitude: 40.092740557059464
longitude: -88.23577232559362
altitude: 200.81029231070514
position_covariance: [0.00011810127762146294, 0.0, 0.0, 0.0, 0.00012134844291722402, 0.0, 0.0, 0.0, 0.00012845902529079467]
position_covariance_type: 2
---
header: 
  seq: 215331
  stamp: 
    secs: 1745597010
    nsecs:  35600467
  frame_id: "base_link"
status: 
  status: 0
  service: 15
latitude: 40.0927405571715
longitude: -88.2357723257579
altitude: 200.81029919234015
position_covariance: [0.0001229667104780674, 0.0, 0.0, 0.0, 0.00012624679948203266, 0.0, 0.0, 0.0, 0.00013236496306490153]
position_covariance_type: 2
---
header: 
  seq: 215332
  stamp: 
    secs: 1745597010
    nsecs:  45606164
  frame_id: "base_link"
status: 
  status: 0
  service: 15
latitude: 40.09274055721891
longitude: -88.23577232600329
altitude: 200.81030489669868
position_covariance: [0.00012799067189916968, 0.0, 0.0, 0.0, 0.00013130404113326222, 0.0, 0.0, 0.0, 0.00013637820666190237]
position_covariance_type: 2
---
header: 
  seq: 215333
  stamp: 
    secs: 1745597010
    nsecs:  55706202
  frame_id: "base_link"
status: 
  status: 0
  service: 15
latitude: 40.092740557275384
longitude: -88.23577232624977
altitude: 200.81030308532252
position_covariance: [0.00013317631965037435, 0.0, 0.0, 0.0, 0.0001365233474643901, 0.0, 0.0, 0.0, 0.00014050028403289616]
position_covariance_type: 2
---
header: 
  seq: 215334
  stamp: 
    secs: 1745597010
    nsecs:  65542760
  frame_id: "base_link"
status: 
  status: 0
  service: 15
latitude: 40.09274054548005
longitude: -88.23577231443097
altitude: 200.80877853235847
position_covariance: [1.6786429114290513e-05, 0.0, 0.0, 0.0, 1.894160232041031e-05, 0.0, 0.0, 0.0, 3.836797259282321e-05]
position_covariance_type: 2
---
header: 
  seq: 215335
  stamp: 
    secs: 1745597010
    nsecs:  75567510
  frame_id: "base_link"
status: 
  status: 0
  service: 15
latitude: 40.09274054540988
longitude: -88.23577231449876
altitude: 200.80877047234648
position_covariance: [1.7329275578958914e-05, 0.0, 0.0, 0.0, 1.9504150259308517e-05, 0.0, 0.0, 0.0, 3.900441515725106e-05]
position_covariance_type: 2
---
header: 
  seq: 215336
  stamp: 
    secs: 1745597010
    nsecs:  85557643
  frame_id: "base_link"
status: 
  status: 0
  service: 15
latitude: 40.092740545358396
longitude: -88.2357723145868
altitude: 200.8087629560806
position_covariance: [1.7912832845468074e-05, 0.0, 0.0, 0.0, 2.0107681848458014e-05, 0.0, 0.0, 0.0, 3.9677393942838535e-05]
position_covariance_type: 2
---
header: 
  seq: 215337
  stamp: 
    secs: 1745597010
    nsecs:  95662897
  frame_id: "base_link"
status: 
  status: 0
  service: 15
latitude: 40.09274054531599
longitude: -88.23577231470095
altitude: 200.8087581143885
position_covariance: [1.8539127268013544e-05, 0.0, 0.0, 0.0, 2.075422708003316e-05, 0.0, 0.0, 0.0, 4.038844053866342e-05]
position_covariance_type: 2
---
header: 
  seq: 215338
  stamp: 
    secs: 1745597010
    nsecs: 105704756
  frame_id: "base_link"
status: 
  status: 0
  service: 15
latitude: 40.09274054530549
longitude: -88.23577231480728
altitude: 200.80875829640433
position_covariance: [1.9210212485631928e-05, 0.0, 0.0, 0.0, 2.1445846869028173e-05, 0.0, 0.0, 0.0, 4.113910108571872e-05]
position_covariance_type: 2
---
header: 
  seq: 215339
  stamp: 
    secs: 1745597010
    nsecs: 115479158
  frame_id: "base_link"
status: 
  status: 0
  service: 15
latitude: 40.09274054528238
longitude: -88.23577231494849
altitude: 200.8087558841634
position_covariance: [1.9928160327253863e-05, 0.0, 0.0, 0.0, 2.2184603949426673e-05, 0.0, 0.0, 0.0, 4.193091081106104e-05]
position_covariance_type: 2
---
header: 
  seq: 215340
  stamp: 
    secs: 1745597010
    nsecs: 125477064
  frame_id: "base_link"
status: 
  status: 0
  service: 15
latitude: 40.092740545231166
longitude: -88.23577231512397
altitude: 200.80875492791054
position_covariance: [2.069507354462985e-05, 0.0, 0.0, 0.0, 2.297260652994737e-05, 0.0, 0.0, 0.0, 4.276541221770458e-05]
position_covariance_type: 2
---
header: 
  seq: 215341
  stamp: 
    secs: 1745597010
    nsecs: 135775729
  frame_id: "base_link"
status: 
  status: 0
  service: 15
latitude: 40.09274054526511
longitude: -88.23577231521443
altitude: 200.80876172441026
position_covariance: [2.1513069441425614e-05, 0.0, 0.0, 0.0, 2.381198100920301e-05, 0.0, 0.0, 0.0, 4.364413325674832e-05]
position_covariance_type: 2
---
header: 
  seq: 215342
  stamp: 
    secs: 1745597010
    nsecs: 145257436
  frame_id: "base_link"
status: 
  status: 0
  service: 15
latitude: 40.092740545285245
longitude: -88.23577231530433
altitude: 200.8087646511877
position_covariance: [2.2384285330190323e-05, 0.0, 0.0, 0.0, 2.4704859242774546e-05, 0.0, 0.0, 0.0, 4.456862370716408e-05]
position_covariance_type: 2
---
header: 
  seq: 215343
  stamp: 
    secs: 1745597010
    nsecs: 155617733
  frame_id: "base_link"
status: 
  status: 0
  service: 15
latitude: 40.0927405453125
longitude: -88.23577231538367
altitude: 200.80876846834798
position_covariance: [2.331089308427181e-05, 0.0, 0.0, 0.0, 2.5653414922999218e-05, 0.0, 0.0, 0.0, 4.5540415158029646e-05]
position_covariance_type: 2
---
header: 
  seq: 215344
  stamp: 
    secs: 1745597010
    nsecs: 165525610
  frame_id: "base_link"
status: 
  status: 0
  service: 15
latitude: 40.0927405453702
longitude: -88.23577231543342
altitude: 200.8087772756886
position_covariance: [2.429507367196493e-05, 0.0, 0.0, 0.0, 2.6659838113118894e-05, 0.0, 0.0, 0.0, 4.656104283640161e-05]
position_covariance_type: 2
---
header: 
  seq: 215345
  stamp: 
    secs: 1745597010
    nsecs: 175691083
  frame_id: "base_link"
status: 
  status: 0
  service: 15
latitude: 40.092740545410805
longitude: -88.23577231551315
altitude: 200.80878352762633
position_covariance: [2.533902988943737e-05, 0.0, 0.0, 0.0, 2.7726327971322462e-05, 0.0, 0.0, 0.0, 4.763206379720941e-05]
position_covariance_type: 2
---
header: 
  seq: 215346
  stamp: 
    secs: 1745597010
    nsecs: 185556067
  frame_id: "base_link"
status: 
  status: 0
  service: 15
latitude: 40.092740545470456
longitude: -88.23577231557783
altitude: 200.80879511287898
position_covariance: [2.644500636961311e-05, 0.0, 0.0, 0.0, 2.885513640649151e-05, 0.0, 0.0, 0.0, 4.87549914396368e-05]
position_covariance_type: 2
---
header: 
  seq: 215347
  stamp: 
    secs: 1745597010
    nsecs: 195638644
  frame_id: "base_link"
status: 
  status: 0
  service: 15
latitude: 40.092740545538746
longitude: -88.23577231561967
altitude: 200.80880000754877
position_covariance: [2.7615247745416127e-05, 0.0, 0.0, 0.0, 3.0048502594581805e-05, 0.0, 0.0, 0.0, 4.993137190467678e-05]
position_covariance_type: 2
---
header: 
  seq: 215348
  stamp: 
    secs: 1745597010
    nsecs: 205525728
  frame_id: "base_link"
status: 
  status: 0
  service: 15
latitude: 40.092740545644254
longitude: -88.23577231560391
altitude: 200.80880485305093
position_covariance: [2.8852035029558465e-05, 0.0, 0.0, 0.0, 3.1308714824263006e-05, 0.0, 0.0, 0.0, 5.11627622472588e-05]
position_covariance_type: 2
---
header: 
  seq: 215349
  stamp: 
    secs: 1745597010
    nsecs: 215537571
  frame_id: "base_link"
status: 
  status: 0
  service: 15
latitude: 40.09274054569619
longitude: -88.23577231563073
altitude: 200.808805088945
position_covariance: [3.015766924363561e-05, 0.0, 0.0, 0.0, 3.2638075936120003e-05, 0.0, 0.0, 0.0, 5.24506758665666e-05]
position_covariance_type: 2
---
header: 
  seq: 215350
  stamp: 
    secs: 1745597010
    nsecs: 225594512
  frame_id: "base_link"
status: 
  status: 0
  service: 15
latitude: 40.09274054582849
longitude: -88.23577231555451
altitude: 200.8088075529476
position_covariance: [3.1534480513073504e-05, 0.0, 0.0, 0.0, 3.403891605557874e-05, 0.0, 0.0, 0.0, 5.37966589035932e-05]
position_covariance_type: 2
---
header: 
  seq: 215351
  stamp: 
    secs: 1745597010
    nsecs: 235307736
  frame_id: "base_link"
status: 
  status: 0
  service: 15
latitude: 40.0927405458676
longitude: -88.23577231555858
altitude: 200.80880929843858
position_covariance: [3.2984811696223915e-05, 0.0, 0.0, 0.0, 3.5513581678969786e-05, 0.0, 0.0, 0.0, 5.5202261137310416e-05]
position_covariance_type: 2
---
header: 
  seq: 215352
  stamp: 
    secs: 1745597010
    nsecs: 245569454
  frame_id: "base_link"
status: 
  status: 0
  service: 15
latitude: 40.0927405458884
longitude: -88.23577231556817
altitude: 200.80881499940276
position_covariance: [3.451103111729026e-05, 0.0, 0.0, 0.0, 3.706444476847537e-05, 0.0, 0.0, 0.0, 5.666900324285962e-05]
position_covariance_type: 2
---
header: 
  seq: 215353
  stamp: 
    secs: 1745597010
    nsecs: 255561093
  frame_id: "base_link"
status: 
  status: 0
  service: 15
latitude: 40.0927405458788
longitude: -88.23577231558119
altitude: 200.80882001941615
position_covariance: [3.611555075622164e-05, 0.0, 0.0, 0.0, 3.869391730404459e-05, 0.0, 0.0, 0.0, 5.819843863719143e-05]
position_covariance_type: 2
---
header: 
  seq: 215354
  stamp: 
    secs: 1745597010
    nsecs: 265580347
  frame_id: "base_link"
status: 
  status: 0
  service: 15
latitude: 40.09274054588653
longitude: -88.23577231555102
altitude: 200.8088256744453
position_covariance: [3.780078259296715e-05, 0.0, 0.0, 0.0, 4.040441126562655e-05, 0.0, 0.0, 0.0, 5.979210254736245e-05]
position_covariance_type: 2
---
header: 
  seq: 215355
  stamp: 
    secs: 1745597010
    nsecs: 275626011
  frame_id: "base_link"
status: 
  status: 0
  service: 15
latitude: 40.09274054588039
longitude: -88.23577231550529
altitude: 200.80882677314423
position_covariance: [3.956917134928517e-05, 0.0, 0.0, 0.0, 4.2198385926894844e-05, 0.0, 0.0, 0.0, 6.145152292447165e-05]
position_covariance_type: 2
---
header: 
  seq: 215356
  stamp: 
    secs: 1745597010
    nsecs: 285668344
  frame_id: "base_link"
status: 
  status: 0
  service: 15
latitude: 40.09274054577099
longitude: -88.23577231555993
altitude: 200.80882360260648
position_covariance: [4.142319448874332e-05, 0.0, 0.0, 0.0, 4.4078300561523065e-05, 0.0, 0.0, 0.0, 6.317825318546966e-05]
position_covariance_type: 2
---
header: 
  seq: 215357
  stamp: 
    secs: 1745597010
    nsecs: 295542903
  frame_id: "base_link"
status: 
  status: 0
  service: 15
latitude: 40.09274054572672
longitude: -88.2357723155382
altitude: 200.80881940281884
position_covariance: [4.3365336750866845e-05, 0.0, 0.0, 0.0, 4.6046654460951686e-05, 0.0, 0.0, 0.0, 6.497382128145546e-05]
position_covariance_type: 2
---
header: 
  seq: 215358
  stamp: 
    secs: 1745597010
    nsecs: 305556453
  frame_id: "base_link"
status: 
  status: 0
  service: 15
latitude: 40.09274054562661
longitude: -88.2357723155879
altitude: 200.8088262866549
position_covariance: [4.539811561699025e-05, 0.0, 0.0, 0.0, 4.810596874449402e-05, 0.0, 0.0, 0.0, 6.683976971544325e-05]
position_covariance_type: 2
---
header: 
  seq: 215359
  stamp: 
    secs: 1745597010
    nsecs: 315636691
  frame_id: "base_link"
status: 
  status: 0
  service: 15
latitude: 40.092740545587944
longitude: -88.23577231557235
altitude: 200.8088271442105
position_covariance: [4.7524132241960615e-05, 0.0, 0.0, 0.0, 5.025884820497595e-05, 0.0, 0.0, 0.0, 6.877769919810817e-05]
position_covariance_type: 2
---
header: 
  seq: 215360
  stamp: 
    secs: 1745597010
    nsecs: 325527490
  frame_id: "base_link"
status: 
  status: 0
  service: 15
latitude: 40.092740545507894
longitude: -88.23577231560257
altitude: 200.8088251726621
position_covariance: [4.974585317540914e-05, 0.0, 0.0, 0.0, 5.250775211607106e-05, 0.0, 0.0, 0.0, 7.078902126522735e-05]
position_covariance_type: 2
---
header: 
  seq: 215361
  stamp: 
    secs: 1745597010
    nsecs: 335543539
  frame_id: "base_link"
status: 
  status: 0
  service: 15
latitude: 40.09274054545154
longitude: -88.23577231561048
altitude: 200.80882774772275
position_covariance: [5.206591958994977e-05, 0.0, 0.0, 0.0, 5.485532165039331e-05, 0.0, 0.0, 0.0, 7.287534390343353e-05]
position_covariance_type: 2
---
header: 
  seq: 215362
  stamp: 
    secs: 1745597010
    nsecs: 345573661
  frame_id: "base_link"
status: 
  status: 0
  service: 15
latitude: 40.09274054539776
longitude: -88.23577231560257
altitude: 200.80883121569855
position_covariance: [5.448692900245078e-05, 0.0, 0.0, 0.0, 5.730417251470499e-05, 0.0, 0.0, 0.0, 7.503820233978331e-05]
position_covariance_type: 2
---
header: 
  seq: 215363
  stamp: 
    secs: 1745597010
    nsecs: 355681145
  frame_id: "base_link"
status: 
  status: 0
  service: 15
latitude: 40.092740545292045
longitude: -88.2357723156395
altitude: 200.80883513859845
position_covariance: [5.701154441339895e-05, 0.0, 0.0, 0.0, 5.985696043353528e-05, 0.0, 0.0, 0.0, 7.727913907729089e-05]
position_covariance_type: 2
---
header: 
  seq: 215364
  stamp: 
    secs: 1745597010
    nsecs: 365648090
  frame_id: "base_link"
status: 
  status: 0
  service: 15
latitude: 40.09274054517921
longitude: -88.23577231569283
altitude: 200.80883834504957
position_covariance: [5.964242518530227e-05, 0.0, 0.0, 0.0, 6.251635204534978e-05, 0.0, 0.0, 0.0, 7.959968206705526e-05]
position_covariance_type: 2
---
header: 
  seq: 215365
  stamp: 
    secs: 1745597010
    nsecs: 375678732
  frame_id: "base_link"
status: 
  status: 0
  service: 15
latitude: 40.09274054509143
longitude: -88.23577231573209
altitude: 200.80884758565512
position_covariance: [6.23822706984356e-05, 0.0, 0.0, 0.0, 6.528502854052931e-05, 0.0, 0.0, 0.0, 8.200138836400583e-05]
position_covariance_type: 2
---
header: 
  seq: 215366
  stamp: 
    secs: 1745597010
    nsecs: 385559321
  frame_id: "base_link"
status: 
  status: 0
  service: 15
latitude: 40.09274054504934
longitude: -88.23577231570988
altitude: 200.8088500536907
position_covariance: [6.523378397105262e-05, 0.0, 0.0, 0.0, 6.816572567913681e-05, 0.0, 0.0, 0.0, 8.448577864328399e-05]
position_covariance_type: 2
---
header: 
  seq: 215367
  stamp: 
    secs: 1745597010
    nsecs: 395606140
  frame_id: "base_link"
status: 
  status: 0
  service: 15
latitude: 40.09274054494789
longitude: -88.23577231575734
altitude: 200.80885761202748
position_covariance: [6.81997335050255e-05, 0.0, 0.0, 0.0, 7.116119377315044e-05, 0.0, 0.0, 0.0, 8.705440268386155e-05]
position_covariance_type: 2
---
header: 
  seq: 215368
  stamp: 
    secs: 1745597010
    nsecs: 405560181
  frame_id: "base_link"
status: 
  status: 0
  service: 15
latitude: 40.09274054490275
longitude: -88.23577231575484
altitude: 200.80886280205723
position_covariance: [7.128284778445959e-05, 0.0, 0.0, 0.0, 7.427416130667552e-05, 0.0, 0.0, 0.0, 8.97087884368375e-05]
position_covariance_type: 2
---
header: 
  seq: 215369
  stamp: 
    secs: 1745597010
    nsecs: 415357447
  frame_id: "base_link"
status: 
  status: 0
  service: 15
latitude: 40.09274054484656
longitude: -88.23577231577661
altitude: 200.80886729750506
position_covariance: [7.448593532899395e-05, 0.0, 0.0, 0.0, 7.750748045509681e-05, 0.0, 0.0, 0.0, 9.245048568118364e-05]
position_covariance_type: 2
---
header: 
  seq: 215370
  stamp: 
    secs: 1745597010
    nsecs: 425580583
  frame_id: "base_link"
status: 
  status: 0
  service: 15
latitude: 40.092740544776866
longitude: -88.23577231582053
altitude: 200.8088768767426
position_covariance: [7.781180465826765e-05, 0.0, 0.0, 0.0, 8.086389425443485e-05, 0.0, 0.0, 0.0, 9.528102964395657e-05]
position_covariance_type: 2
---
header: 
  seq: 215371
  stamp: 
    secs: 1745597010
    nsecs: 435568318
  frame_id: "base_link"
status: 
  status: 0
  service: 15
latitude: 40.092740544741986
longitude: -88.23577231583083
altitude: 200.8088835220216
position_covariance: [8.126331522362307e-05, 0.0, 0.0, 0.0, 8.434632036369294e-05, 0.0, 0.0, 0.0, 9.820196282817051e-05]
position_covariance_type: 2
---
header: 
  seq: 215372
  stamp: 
    secs: 1745597010
    nsecs: 445617884
  frame_id: "base_link"
status: 
  status: 0
  service: 15
latitude: 40.09274054469426
longitude: -88.23577231587723
altitude: 200.8088943123172
position_covariance: [8.484329737257212e-05, 0.0, 0.0, 0.0, 8.795756002655253e-05, 0.0, 0.0, 0.0, 0.00010121482773683965]
position_covariance_type: 2
---
header: 
  seq: 215373
  stamp: 
    secs: 1745597010
    nsecs: 455665757
  frame_id: "base_link"
status: 
  status: 0
  service: 15
latitude: 40.09274054471938
longitude: -88.23577231584892
altitude: 200.80890409761577
position_covariance: [8.855464693624526e-05, 0.0, 0.0, 0.0, 9.170053090201691e-05, 0.0, 0.0, 0.0, 0.00010432115232106298]
position_covariance_type: 2
---
header: 
  seq: 215374
  stamp: 
    secs: 1745597010
    nsecs: 465641534
  frame_id: "base_link"
status: 
  status: 0
  service: 15
latitude: 40.09274054468763
longitude: -88.23577231588312
altitude: 200.80890673589866
position_covariance: [9.2400296125561e-05, 0.0, 0.0, 0.0, 9.557812882121652e-05, 0.0, 0.0, 0.0, 0.00010752245725598186]
position_covariance_type: 2
---
header: 
  seq: 215375
  stamp: 
    secs: 1745597010
    nsecs: 475572378
  frame_id: "base_link"
status: 
  status: 0
  service: 15
latitude: 40.09274054466051
longitude: -88.23577231592525
altitude: 200.8089182762476
position_covariance: [9.638316987548023e-05, 0.0, 0.0, 0.0, 9.95933442027308e-05, 0.0, 0.0, 0.0, 0.00011082031414844096]
position_covariance_type: 2
---
header: 
  seq: 215376
  stamp: 
    secs: 1745597010
    nsecs: 485541978
  frame_id: "base_link"
status: 
  status: 0
  service: 15
latitude: 40.09274054466407
longitude: -88.23577231594226
altitude: 200.80893350035453
position_covariance: [0.00010050626588054001, 0.0, 0.0, 0.0, 0.00010374913108535111, 0.0, 0.0, 0.0, 0.00011421627277741209]
position_covariance_type: 2
---
header: 
  seq: 215377
  stamp: 
    secs: 1745597010
    nsecs: 495225475
  frame_id: "base_link"
status: 
  status: 0
  service: 15
latitude: 40.092740544651875
longitude: -88.23577231596369
altitude: 200.80894173644796
position_covariance: [0.00010477258183527738, 0.0, 0.0, 0.0, 0.00010804848716361448, 0.0, 0.0, 0.0, 0.00011771183199016377]
position_covariance_type: 2
---
header: 
  seq: 215378
  stamp: 
    secs: 1745597010
    nsecs: 505629273
  frame_id: "base_link"
status: 
  status: 0
  service: 15
latitude: 40.09274054467748
longitude: -88.23577231594953
altitude: 200.80894998320164
position_covariance: [0.00010918511543422937, 0.0, 0.0, 0.0, 0.00011249443195993081, 0.0, 0.0, 0.0, 0.00012130855611758307]
position_covariance_type: 2
---
header: 
  seq: 215379
  stamp: 
    secs: 1745597010
    nsecs: 515567002
  frame_id: "base_link"
status: 
  status: 0
  service: 15
latitude: 40.09274054469337
longitude: -88.2357723159472
altitude: 200.80895905134332
position_covariance: [0.00011374692257959396, 0.0, 0.0, 0.0, 0.00011709004320437089, 0.0, 0.0, 0.0, 0.00012500796583481133]
position_covariance_type: 2
---
header: 
  seq: 215380
  stamp: 
    secs: 1745597010
    nsecs: 525509774
  frame_id: "base_link"
status: 
  status: 0
  service: 15
latitude: 40.092740544706096
longitude: -88.23577231594874
altitude: 200.8089680065333
position_covariance: [0.00011846111010527238, 0.0, 0.0, 0.0, 0.00012183838407509029, 0.0, 0.0, 0.0, 0.000128811618196778]
position_covariance_type: 2
---
header: 
  seq: 215381
  stamp: 
    secs: 1745597010
    nsecs: 535601793
  frame_id: "base_link"
status: 
  status: 0
  service: 15
latitude: 40.092740544694884
longitude: -88.23577231599286
altitude: 200.80897724193585
position_covariance: [0.00012333071208558977, 0.0, 0.0, 0.0, 0.00012674253957811743, 0.0, 0.0, 0.0, 0.00013272104843053967]
position_covariance_type: 2
---
header: 
  seq: 215382
  stamp: 
    secs: 1745597010
    nsecs: 545689294
  frame_id: "base_link"
status: 
  status: 0
  service: 15
latitude: 40.092740544687075
longitude: -88.23577231602232
altitude: 200.80898651973285
position_covariance: [0.00012835889356210828, 0.0, 0.0, 0.0, 0.00013180560199543834, 0.0, 0.0, 0.0, 0.0001367377844871953]
position_covariance_type: 2
---
header: 
  seq: 215383
  stamp: 
    secs: 1745597010
    nsecs: 555681908
  frame_id: "base_link"
status: 
  status: 0
  service: 15
latitude: 40.092740544673845
longitude: -88.23577231604996
altitude: 200.80899262984008
position_covariance: [0.00013354879047255963, 0.0, 0.0, 0.0, 0.00013703077274840325, 0.0, 0.0, 0.0, 0.0001408633979735896]
position_covariance_type: 2
---
header: 
  seq: 215384
  stamp: 
    secs: 1745597010
    nsecs: 565632891
  frame_id: "base_link"
status: 
  status: 0
  service: 15
latitude: 40.09274054309212
longitude: -88.23577231594075
altitude: 200.8087654427937
position_covariance: [1.655381674936507e-05, 0.0, 0.0, 0.0, 1.8542395991971716e-05, 0.0, 0.0, 0.0, 3.799082332989201e-05]
position_covariance_type: 2
---
header: 
  seq: 215385
  stamp: 
    secs: 1745597010
    nsecs: 575615251
  frame_id: "base_link"
status: 
  status: 0
  service: 15
latitude: 40.0927405430765
longitude: -88.2357723159798
altitude: 200.80876698312426
position_covariance: [1.7092776033678092e-05, 0.0, 0.0, 0.0, 1.9098799384664744e-05, 0.0, 0.0, 0.0, 3.8623307773377746e-05]
position_covariance_type: 2
---
header: 
  seq: 215386
  stamp: 
    secs: 1745597010
    nsecs: 585660952
  frame_id: "base_link"
status: 
  status: 0
  service: 15
latitude: 40.09274054300883
longitude: -88.23577231608057
altitude: 200.80877003263603
position_covariance: [1.7672424291959032e-05, 0.0, 0.0, 0.0, 1.969613913388457e-05, 0.0, 0.0, 0.0, 3.9292317524086684e-05]
position_covariance_type: 2
---
header: 
  seq: 215387
  stamp: 
    secs: 1745597010
    nsecs: 595446980
  frame_id: "base_link"
status: 
  status: 0
  service: 15
latitude: 40.09274054298582
longitude: -88.2357723161411
altitude: 200.80876877523508
position_covariance: [1.8294786059414037e-05, 0.0, 0.0, 0.0, 2.033645250776317e-05, 0.0, 0.0, 0.0, 3.999937325716019e-05]
position_covariance_type: 2
---
header: 
  seq: 215388
  stamp: 
    secs: 1745597010
    nsecs: 605682193
  frame_id: "base_link"
status: 
  status: 0
  service: 15
latitude: 40.09274054298948
longitude: -88.23577231618225
altitude: 200.80877235013602
position_covariance: [1.8961907699122094e-05, 0.0, 0.0, 0.0, 2.102178768836893e-05, 0.0, 0.0, 0.0, 4.07460356655065e-05]
position_covariance_type: 2
---
header: 
  seq: 215389
  stamp: 
    secs: 1745597010
    nsecs: 615739780
  frame_id: "base_link"
status: 
  status: 0
  service: 15
latitude: 40.092740542969594
longitude: -88.23577231625013
altitude: 200.80877679012016
position_covariance: [1.9675862859003246e-05, 0.0, 0.0, 0.0, 2.1754221961600706e-05, 0.0, 0.0, 0.0, 4.1533829062245786e-05]
position_covariance_type: 2
---
header: 
  seq: 215390
  stamp: 
    secs: 1745597010
    nsecs: 625623274
  frame_id: "base_link"
status: 
  status: 0
  service: 15
latitude: 40.09274054289234
longitude: -88.23577231637451
altitude: 200.80877791384157
position_covariance: [2.043875247181859e-05, 0.0, 0.0, 0.0, 2.2535848984261975e-05, 0.0, 0.0, 0.0, 4.2364292312413454e-05]
position_covariance_type: 2
---
header: 
  seq: 215391
  stamp: 
    secs: 1745597010
    nsecs: 635686558
  frame_id: "base_link"
status: 
  status: 0
  service: 15
latitude: 40.09274054290134
longitude: -88.23577231641532
altitude: 200.808781008665
position_covariance: [2.125269384123385e-05, 0.0, 0.0, 0.0, 2.3368789697997272e-05, 0.0, 0.0, 0.0, 4.32389642810449e-05]
position_covariance_type: 2
---
header: 
  seq: 215392
  stamp: 
    secs: 1745597010
    nsecs: 645683798
  frame_id: "base_link"
status: 
  status: 0
  service: 15
latitude: 40.09274054286914
longitude: -88.23577231649523
altitude: 200.80878570725662
position_covariance: [2.2119827917777002e-05, 0.0, 0.0, 0.0, 2.425519414828159e-05, 0.0, 0.0, 0.0, 4.415939110913314e-05]
position_covariance_type: 2
---
header: 
  seq: 215393
  stamp: 
    secs: 1745597010
    nsecs: 655651339
  frame_id: "base_link"
status: 
  status: 0
  service: 15
latitude: 40.09274054286759
longitude: -88.2357723165392
altitude: 200.80878737547854
position_covariance: [2.3042313841870055e-05, 0.0, 0.0, 0.0, 2.5197221475536935e-05, 0.0, 0.0, 0.0, 4.512710074777715e-05]
position_covariance_type: 2
---
header: 
  seq: 215394
  stamp: 
    secs: 1745597010
    nsecs: 665683524
  frame_id: "base_link"
status: 
  status: 0
  service: 15
latitude: 40.09274054286792
longitude: -88.23577231659372
altitude: 200.80879788709325
position_covariance: [2.4022347133723088e-05, 0.0, 0.0, 0.0, 2.6197063561994582e-05, 0.0, 0.0, 0.0, 4.6143639337969944e-05]
position_covariance_type: 2
---
header: 
  seq: 215395
  stamp: 
    secs: 1745597010
    nsecs: 675660368
  frame_id: "base_link"
status: 
  status: 0
  service: 15
latitude: 40.092740542859374
longitude: -88.23577231667221
altitude: 200.80880542819685
position_covariance: [2.506212877051439e-05, 0.0, 0.0, 0.0, 2.7256934117758647e-05, 0.0, 0.0, 0.0, 4.721053846878931e-05]
position_covariance_type: 2
---
header: 
  seq: 215396
  stamp: 
    secs: 1745597010
    nsecs: 685654761
  frame_id: "base_link"
status: 
  status: 0
  service: 15
latitude: 40.09274054286728
longitude: -88.2357723167386
altitude: 200.8088112890483
position_covariance: [2.616389247123152e-05, 0.0, 0.0, 0.0, 2.837906504282728e-05, 0.0, 0.0, 0.0, 4.8329337005270645e-05]
position_covariance_type: 2
---
header: 
  seq: 215397
  stamp: 
    secs: 1745597010
    nsecs: 695733910
  frame_id: "base_link"
status: 
  status: 0
  service: 15
latitude: 40.09274054288532
longitude: -88.235772316797
altitude: 200.80881912762098
position_covariance: [2.732990287768189e-05, 0.0, 0.0, 0.0, 2.956571006507147e-05, 0.0, 0.0, 0.0, 4.950157381244935e-05]
position_covariance_type: 2
---
header: 
  seq: 215398
  stamp: 
    secs: 1745597010
    nsecs: 705796933
  frame_id: "base_link"
status: 
  status: 0
  service: 15
latitude: 40.09274054289177
longitude: -88.23577231688465
altitude: 200.80882702549812
position_covariance: [2.85624191747047e-05, 0.0, 0.0, 0.0, 3.081914837821387e-05, 0.0, 0.0, 0.0, 5.072879866929725e-05]
position_covariance_type: 2
---
header: 
  seq: 215399
  stamp: 
    secs: 1745597010
    nsecs: 715760271
  frame_id: "base_link"
status: 
  status: 0
  service: 15
latitude: 40.092740542878076
longitude: -88.23577231699474
altitude: 200.80883131114442
position_covariance: [2.9863755116821267e-05, 0.0, 0.0, 0.0, 3.214168464182876e-05, 0.0, 0.0, 0.0, 5.20125322509557e-05]
position_covariance_type: 2
---
header: 
  seq: 215400
  stamp: 
    secs: 1745597010
    nsecs: 725808613
  frame_id: "base_link"
status: 
  status: 0
  service: 15
latitude: 40.0927405429006
longitude: -88.23577231708094
altitude: 200.80883140532347
position_covariance: [3.123623173451051e-05, 0.0, 0.0, 0.0, 3.353564898134209e-05, 0.0, 0.0, 0.0, 5.3354331612354144e-05]
position_covariance_type: 2
---
header: 
  seq: 215401
  stamp: 
    secs: 1745597010
    nsecs: 735760396
  frame_id: "base_link"
status: 
  status: 0
  service: 15
latitude: 40.09274054293298
longitude: -88.23577231716216
altitude: 200.80883022992515
position_covariance: [3.2682204619050026e-05, 0.0, 0.0, 0.0, 3.500339516904205e-05, 0.0, 0.0, 0.0, 5.475572106661275e-05]
position_covariance_type: 2
---
header: 
  seq: 215402
  stamp: 
    secs: 1745597010
    nsecs: 745654449
  frame_id: "base_link"
status: 
  status: 0
  service: 15
latitude: 40.09274054298416
longitude: -88.23577231723138
altitude: 200.80883373427656
position_covariance: [3.420404755161144e-05, 0.0, 0.0, 0.0, 3.654729516711086e-05, 0.0, 0.0, 0.0, 5.6218243116745725e-05]
position_covariance_type: 2
---
header: 
  seq: 215403
  stamp: 
    secs: 1745597010
    nsecs: 755617310
  frame_id: "base_link"
status: 
  status: 0
  service: 15
latitude: 40.09274054302624
longitude: -88.2357723172986
altitude: 200.80883191514963
position_covariance: [3.5804154322249815e-05, 0.0, 0.0, 0.0, 3.816975367954001e-05, 0.0, 0.0, 0.0, 5.774343298980966e-05]
position_covariance_type: 2
---
header: 
  seq: 215404
  stamp: 
    secs: 1745597010
    nsecs: 765731135
  frame_id: "base_link"
status: 
  status: 0
  service: 15
latitude: 40.09274054301846
longitude: -88.23577231742125
altitude: 200.80883742947208
position_covariance: [3.7484951462829486e-05, 0.0, 0.0, 0.0, 3.9873197238193825e-05, 0.0, 0.0, 0.0, 5.933284046477638e-05]
position_covariance_type: 2
---
header: 
  seq: 215405
  stamp: 
    secs: 1745597010
    nsecs: 775407937
  frame_id: "base_link"
status: 
  status: 0
  service: 15
latitude: 40.092740543061645
longitude: -88.23577231748412
altitude: 200.80883993890927
position_covariance: [3.9248883695108816e-05, 0.0, 0.0, 0.0, 4.166006328887306e-05, 0.0, 0.0, 0.0, 6.098799713072367e-05]
position_covariance_type: 2
---
header: 
  seq: 215406
  stamp: 
    secs: 1745597010
    nsecs: 785767833
  frame_id: "base_link"
status: 
  status: 0
  service: 15
latitude: 40.09274054308357
longitude: -88.23577231756671
altitude: 200.80884189036877
position_covariance: [4.109841393074021e-05, 0.0, 0.0, 0.0, 4.353283657110296e-05, 0.0, 0.0, 0.0, 6.271043821470812e-05]
position_covariance_type: 2
---
header: 
  seq: 215407
  stamp: 
    secs: 1745597010
    nsecs: 795835894
  frame_id: "base_link"
status: 
  status: 0
  service: 15
latitude: 40.0927405430959
longitude: -88.23577231763805
altitude: 200.80884362222082
position_covariance: [4.303605601307936e-05, 0.0, 0.0, 0.0, 4.549400546238758e-05, 0.0, 0.0, 0.0, 6.450169166782871e-05]
position_covariance_type: 2
---
header: 
  seq: 215408
  stamp: 
    secs: 1745597010
    nsecs: 805659901
  frame_id: "base_link"
status: 
  status: 0
  service: 15
latitude: 40.09274054309399
longitude: -88.23577231770987
altitude: 200.8088581343124
position_covariance: [4.506432014750317e-05, 0.0, 0.0, 0.0, 4.754610563395545e-05, 0.0, 0.0, 0.0, 6.63633254589513e-05]
position_covariance_type: 2
---
header: 
  seq: 215409
  stamp: 
    secs: 1745597010
    nsecs: 815748788
  frame_id: "base_link"
status: 
  status: 0
  service: 15
latitude: 40.09274054313342
longitude: -88.23577231770908
altitude: 200.8088659620479
position_covariance: [4.71858074888587e-05, 0.0, 0.0, 0.0, 4.969173460267484e-05, 0.0, 0.0, 0.0, 6.829690391896293e-05]
position_covariance_type: 2
---
header: 
  seq: 215410
  stamp: 
    secs: 1745597010
    nsecs: 825803930
  frame_id: "base_link"
status: 
  status: 0
  service: 15
latitude: 40.09274054308691
longitude: -88.23577231778194
altitude: 200.8088778836772
position_covariance: [4.940299550071359e-05, 0.0, 0.0, 0.0, 5.193336255615577e-05, 0.0, 0.0, 0.0, 7.030389679130167e-05]
position_covariance_type: 2
---
header: 
  seq: 215411
  stamp: 
    secs: 1745597010
    nsecs: 835615549
  frame_id: "base_link"
status: 
  status: 0
  service: 15
latitude: 40.092740543136536
longitude: -88.23577231771898
altitude: 200.80888716431443
position_covariance: [5.1718503527808934e-05, 0.0, 0.0, 0.0, 5.427362339105457e-05, 0.0, 0.0, 0.0, 7.238585385493934e-05]
position_covariance_type: 2
---
header: 
  seq: 215412
  stamp: 
    secs: 1745597010
    nsecs: 845642877
  frame_id: "base_link"
status: 
  status: 0
  service: 15
latitude: 40.09274054312871
longitude: -88.23577231770413
altitude: 200.80890235135314
position_covariance: [5.413495091488585e-05, 0.0, 0.0, 0.0, 5.671513645211235e-05, 0.0, 0.0, 0.0, 7.454431761289015e-05]
position_covariance_type: 2
---
header: 
  seq: 215413
  stamp: 
    secs: 1745597010
    nsecs: 855712607
  frame_id: "base_link"
status: 
  status: 0
  service: 15
latitude: 40.092740543140785
longitude: -88.23577231765451
altitude: 200.80891499528863
position_covariance: [5.6654982472537085e-05, 0.0, 0.0, 0.0, 5.926052836002782e-05, 0.0, 0.0, 0.0, 7.6780874223914e-05]
position_covariance_type: 2
---
header: 
  seq: 215414
  stamp: 
    secs: 1745597010
    nsecs: 865622183
  frame_id: "base_link"
status: 
  status: 0
  service: 15
latitude: 40.09274054318227
longitude: -88.23577231757498
altitude: 200.80892574458304
position_covariance: [5.92812430113554e-05, 0.0, 0.0, 0.0, 6.191247666720301e-05, 0.0, 0.0, 0.0, 7.909699343144894e-05]
position_covariance_type: 2
---
header: 
  seq: 215415
  stamp: 
    secs: 1745597010
    nsecs: 875629290
  frame_id: "base_link"
status: 
  status: 0
  service: 15
latitude: 40.09274054317437
longitude: -88.23577231755365
altitude: 200.8089408627039
position_covariance: [6.201643554959446e-05, 0.0, 0.0, 0.0, 6.467366620199755e-05, 0.0, 0.0, 0.0, 8.149426867021248e-05]
position_covariance_type: 2
---
header: 
  seq: 215416
  stamp: 
    secs: 1745597010
    nsecs: 885559707
  frame_id: "base_link"
status: 
  status: 0
  service: 15
latitude: 40.09274054320401
longitude: -88.23577231749479
altitude: 200.80894797745424
position_covariance: [6.486324855359271e-05, 0.0, 0.0, 0.0, 6.754681817255914e-05, 0.0, 0.0, 0.0, 8.397422061534598e-05]
position_covariance_type: 2
---
header: 
  seq: 215417
  stamp: 
    secs: 1745597010
    nsecs: 895558878
  frame_id: "base_link"
status: 
  status: 0
  service: 15
latitude: 40.09274054322173
longitude: -88.2357723174767
altitude: 200.80895921256035
position_covariance: [6.782446143915877e-05, 0.0, 0.0, 0.0, 7.05346537870355e-05, 0.0, 0.0, 0.0, 8.653836994199082e-05]
position_covariance_type: 2
---
header: 
  seq: 215418
  stamp: 
    secs: 1745597010
    nsecs: 905762984
  frame_id: "base_link"
status: 
  status: 0
  service: 15
latitude: 40.09274054325072
longitude: -88.23577231746552
altitude: 200.80896676782626
position_covariance: [7.09027808625251e-05, 0.0, 0.0, 0.0, 7.363994518527761e-05, 0.0, 0.0, 0.0, 8.918829553294927e-05]
position_covariance_type: 2
---
header: 
  seq: 215419
  stamp: 
    secs: 1745597010
    nsecs: 915648819
  frame_id: "base_link"
status: 
  status: 0
  service: 15
latitude: 40.09274054332815
longitude: -88.23577231742463
altitude: 200.80897672963746
position_covariance: [7.410103717120364e-05, 0.0, 0.0, 0.0, 7.686547178309411e-05, 0.0, 0.0, 0.0, 9.192548168357462e-05]
position_covariance_type: 2
---
header: 
  seq: 215420
  stamp: 
    secs: 1745597010
    nsecs: 925597849
  frame_id: "base_link"
status: 
  status: 0
  service: 15
latitude: 40.09274054340641
longitude: -88.23577231740867
altitude: 200.80898311889524
position_covariance: [7.742200250504538e-05, 0.0, 0.0, 0.0, 8.021407847991213e-05, 0.0, 0.0, 0.0, 9.47515363804996e-05]
position_covariance_type: 2
---
header: 
  seq: 215421
  stamp: 
    secs: 1745597010
    nsecs: 935666836
  frame_id: "base_link"
status: 
  status: 0
  service: 15
latitude: 40.092740543502984
longitude: -88.23577231740896
altitude: 200.8089833973762
position_covariance: [8.086856541922316e-05, 0.0, 0.0, 0.0, 8.368857379537076e-05, 0.0, 0.0, 0.0, 9.76679366431199e-05]
position_covariance_type: 2
---
header: 
  seq: 215422
  stamp: 
    secs: 1745597010
    nsecs: 945552437
  frame_id: "base_link"
status: 
  status: 0
  service: 15
latitude: 40.09274054360191
longitude: -88.23577231743973
altitude: 200.80898363350124
position_covariance: [8.44435635372065e-05, 0.0, 0.0, 0.0, 8.729184628464282e-05, 0.0, 0.0, 0.0, 0.00010067625407828018]
position_covariance_type: 2
---
header: 
  seq: 215423
  stamp: 
    secs: 1745597010
    nsecs: 955583117
  frame_id: "base_link"
status: 
  status: 0
  service: 15
latitude: 40.09274054369984
longitude: -88.23577231752195
altitude: 200.80898192338532
position_covariance: [8.814987813821062e-05, 0.0, 0.0, 0.0, 9.102675539907068e-05, 0.0, 0.0, 0.0, 0.00010377800208516419]
position_covariance_type: 2
---
header: 
  seq: 215424
  stamp: 
    secs: 1745597010
    nsecs: 965610057
  frame_id: "base_link"
status: 
  status: 0
  service: 15
latitude: 40.09274054376509
longitude: -88.2357723176999
altitude: 200.80899142366843
position_covariance: [9.199046326102689e-05, 0.0, 0.0, 0.0, 9.489627700531855e-05, 0.0, 0.0, 0.0, 0.00010697474499465898]
position_covariance_type: 2
---
header: 
  seq: 215425
  stamp: 
    secs: 1745597010
    nsecs: 975639823
  frame_id: "base_link"
status: 
  status: 0
  service: 15
latitude: 40.0927405438107
longitude: -88.23577231791921
altitude: 200.80899554336236
position_covariance: [9.59682438406162e-05, 0.0, 0.0, 0.0, 9.890335059026256e-05, 0.0, 0.0, 0.0, 0.00011026803258573636]
position_covariance_type: 2
---
header: 
  seq: 215426
  stamp: 
    secs: 1745597010
    nsecs: 985501934
  frame_id: "base_link"
status: 
  status: 0
  service: 15
latitude: 40.09274054391857
longitude: -88.23577231809313
altitude: 200.80900741547012
position_covariance: [0.00010008619574364275, 0.0, 0.0, 0.0, 0.00010305093019269407, 0.0, 0.0, 0.0, 0.00011365937098162249]
position_covariance_type: 2
---
header: 
  seq: 215427
  stamp: 
    secs: 1745597010
    nsecs: 995588374
  frame_id: "base_link"
status: 
  status: 0
  service: 15
latitude: 40.09274054398543
longitude: -88.2357723183341
altitude: 200.8090158826933
position_covariance: [0.0001043473748723045, 0.0, 0.0, 0.0, 0.0001073420571628958, 0.0, 0.0, 0.0, 0.00011715029540937394]
position_covariance_type: 2
---
header: 
  seq: 215428
  stamp: 
    secs: 1745597011
    nsecs:   5507762
  frame_id: "base_link"
status: 
  status: 0
  service: 15
latitude: 40.092740544063545
longitude: -88.2357723185618
altitude: 200.80902249990194
position_covariance: [0.0001087547279894352, 0.0, 0.0, 0.0, 0.00011177973647136241, 0.0, 0.0, 0.0, 0.000120742384751793]
position_covariance_type: 2
---
header: 
  seq: 215429
  stamp: 
    secs: 1745597011
    nsecs:  15540559
  frame_id: "base_link"
status: 
  status: 0
  service: 15
latitude: 40.092740544198826
longitude: -88.23577231872612
altitude: 200.8090329160216
position_covariance: [0.00011331139103276655, 0.0, 0.0, 0.0, 0.00011636702402029186, 0.0, 0.0, 0.0, 0.00012443716695997864]
position_covariance_type: 2
---
header: 
  seq: 215430
  stamp: 
    secs: 1745597011
    nsecs:  25568259
  frame_id: "base_link"
status: 
  status: 0
  service: 15
latitude: 40.092740544208056
longitude: -88.23577231901913
altitude: 200.80905023027807
position_covariance: [0.00011802038352470845, 0.0, 0.0, 0.0, 0.0001211070193676278, 0.0, 0.0, 0.0, 0.00012823613360524178]
position_covariance_type: 2
---
header: 
  seq: 215431
  stamp: 
    secs: 1745597011
    nsecs:  35660961
  frame_id: "base_link"
status: 
  status: 0
  service: 15
latitude: 40.09274054428577
longitude: -88.23577231922913
altitude: 200.80907334679745
position_covariance: [0.00012288482685107738, 0.0, 0.0, 0.0, 0.00012600282207131386, 0.0, 0.0, 0.0, 0.00013214089267421514]
position_covariance_type: 2
---
header: 
  seq: 215432
  stamp: 
    secs: 1745597011
    nsecs:  45348984
  frame_id: "base_link"
status: 
  status: 0
  service: 15
latitude: 40.09274054438763
longitude: -88.23577231940489
altitude: 200.80909740220542
position_covariance: [0.00012790781329385936, 0.0, 0.0, 0.0, 0.00013105753168929368, 0.0, 0.0, 0.0, 0.00013615292846225202]
position_covariance_type: 2
---
header: 
  seq: 215433
  stamp: 
    secs: 1745597011
    nsecs:  55819371
  frame_id: "base_link"
status: 
  status: 0
  service: 15
latitude: 40.09274054442017
longitude: -88.23577231963858
altitude: 200.8091166609557
position_covariance: [0.00013309255882631987, 0.0, 0.0, 0.0, 0.00013627432053908706, 0.0, 0.0, 0.0, 0.00014027379802428186]
position_covariance_type: 2
---
header: 
  seq: 215434
  stamp: 
    secs: 1745597011
    nsecs:  65543482
  frame_id: "base_link"
status: 
  status: 0
  service: 15
latitude: 40.092740548296824
longitude: -88.23577230274572
altitude: 200.80976231037988
position_covariance: [1.666569551161956e-05, 0.0, 0.0, 0.0, 1.871432687039487e-05, 0.0, 0.0, 0.0, 3.816782191279344e-05]
position_covariance_type: 2
---
header: 
  seq: 215435
  stamp: 
    secs: 1745597011
    nsecs:  75586535
  frame_id: "base_link"
status: 
  status: 0
  service: 15
latitude: 40.09274054830794
longitude: -88.23577230280814
altitude: 200.8097794491013
position_covariance: [1.720709406072274e-05, 0.0, 0.0, 0.0, 1.9274577425676398e-05, 0.0, 0.0, 0.0, 3.880330768879503e-05]
position_covariance_type: 2
---
header: 
  seq: 215436
  stamp: 
    secs: 1745597011
    nsecs:  85615338
  frame_id: "base_link"
status: 
  status: 0
  service: 15
latitude: 40.09274054824976
longitude: -88.23577230293232
altitude: 200.8097987742217
position_covariance: [1.7789187040762044e-05, 0.0, 0.0, 0.0, 1.9875786165357567e-05, 0.0, 0.0, 0.0, 3.9475322409998626e-05]
position_covariance_type: 2
---
header: 
  seq: 215437
  stamp: 
    secs: 1745597011
    nsecs:  95656509
  frame_id: "base_link"
status: 
  status: 0
  service: 15
latitude: 40.09274054822317
longitude: -88.23577230300917
altitude: 200.80981972279127
position_covariance: [1.841400626290124e-05, 0.0, 0.0, 0.0, 2.0519981262623332e-05, 0.0, 0.0, 0.0, 4.0185408579418436e-05]
position_covariance_type: 2
---
header: 
  seq: 215438
  stamp: 
    secs: 1745597011
    nsecs: 105613823
  frame_id: "base_link"
status: 
  status: 0
  service: 15
latitude: 40.09274054819839
longitude: -88.2357723030743
altitude: 200.80983574071595
position_covariance: [1.9083596271229908e-05, 0.0, 0.0, 0.0, 2.1209214537520893e-05, 0.0, 0.0, 0.0, 4.093509414815344e-05]
position_covariance_type: 2
---
header: 
  seq: 215439
  stamp: 
    secs: 1745597011
    nsecs: 115608098
  frame_id: "base_link"
status: 
  status: 0
  service: 15
latitude: 40.092740548204404
longitude: -88.23577230309253
altitude: 200.8098467201163
position_covariance: [1.980002889467869e-05, 0.0, 0.0, 0.0, 2.194555963797029e-05, 0.0, 0.0, 0.0, 4.172592525719665e-05]
position_covariance_type: 2
---
header: 
  seq: 215440
  stamp: 
    secs: 1745597011
    nsecs: 125617971
  frame_id: "base_link"
status: 
  status: 0
  service: 15
latitude: 40.0927405481598
longitude: -88.23577230316688
altitude: 200.80986328625127
position_covariance: [2.056539960904047e-05, 0.0, 0.0, 0.0, 2.2731119315722026e-05, 0.0, 0.0, 0.0, 4.2559433495625854e-05]
position_covariance_type: 2
---
header: 
  seq: 215441
  stamp: 
    secs: 1745597011
    nsecs: 135286507
  frame_id: "base_link"
status: 
  status: 0
  service: 15
latitude: 40.09274054813851
longitude: -88.23577230319277
altitude: 200.80986996722075
position_covariance: [2.1381831174949184e-05, 0.0, 0.0, 0.0, 2.3567999960505404e-05, 0.0, 0.0, 0.0, 4.3437165004434064e-05]
position_covariance_type: 2
---
header: 
  seq: 215442
  stamp: 
    secs: 1745597011
    nsecs: 145557419
  frame_id: "base_link"
status: 
  status: 0
  service: 15
latitude: 40.09274054810267
longitude: -88.23577230323045
altitude: 200.80988384328822
position_covariance: [2.2251462723943405e-05, 0.0, 0.0, 0.0, 2.445836435072124e-05, 0.0, 0.0, 0.0, 4.4360655010677874e-05]
position_covariance_type: 2
---
header: 
  seq: 215443
  stamp: 
    secs: 1745597011
    nsecs: 155638414
  frame_id: "base_link"
status: 
  status: 0
  service: 15
latitude: 40.09274054819302
longitude: -88.23577230311304
altitude: 200.80989000467218
position_covariance: [2.3176455215434544e-05, 0.0, 0.0, 0.0, 2.5404362531844527e-05, 0.0, 0.0, 0.0, 4.5331442379392684e-05]
position_covariance_type: 2
---
header: 
  seq: 215444
  stamp: 
    secs: 1745597011
    nsecs: 165613793
  frame_id: "base_link"
status: 
  status: 0
  service: 15
latitude: 40.09274054822201
longitude: -88.23577230306694
altitude: 200.8099002868506
position_covariance: [2.415900416963268e-05, 0.0, 0.0, 0.0, 2.640819911903236e-05, 0.0, 0.0, 0.0, 4.635105869965628e-05]
position_covariance_type: 2
---
header: 
  seq: 215445
  stamp: 
    secs: 1745597011
    nsecs: 175579434
  frame_id: "base_link"
status: 
  status: 0
  service: 15
latitude: 40.09274054827527
longitude: -88.23577230299436
altitude: 200.8099113989529
position_covariance: [2.5201316020684317e-05, 0.0, 0.0, 0.0, 2.7472075089463033e-05, 0.0, 0.0, 0.0, 4.742106102639809e-05]
position_covariance_type: 2
---
header: 
  seq: 215446
  stamp: 
    secs: 1745597011
    nsecs: 185478442
  frame_id: "base_link"
status: 
  status: 0
  service: 15
latitude: 40.09274054827747
longitude: -88.23577230296962
altitude: 200.80991920600684
position_covariance: [2.6305624487577006e-05, 0.0, 0.0, 0.0, 2.8598233257071115e-05, 0.0, 0.0, 0.0, 4.8542966396780685e-05]
position_covariance_type: 2
---
header: 
  seq: 215447
  stamp: 
    secs: 1745597011
    nsecs: 195571988
  frame_id: "base_link"
status: 
  status: 0
  service: 15
latitude: 40.09274054832146
longitude: -88.23577230291767
altitude: 200.80993501193643
position_covariance: [2.7474194212118164e-05, 0.0, 0.0, 0.0, 2.9788930987706408e-05, 0.0, 0.0, 0.0, 4.971832095179707e-05]
position_covariance_type: 2
---
header: 
  seq: 215448
  stamp: 
    secs: 1745597011
    nsecs: 205555744
  frame_id: "base_link"
status: 
  status: 0
  service: 15
latitude: 40.09274054835215
longitude: -88.23577230287194
altitude: 200.8099430941077
position_covariance: [2.8709295293083414e-05, 0.0, 0.0, 0.0, 3.104645657003857e-05, 0.0, 0.0, 0.0, 5.094866719446145e-05]
position_covariance_type: 2
---
header: 
  seq: 215449
  stamp: 
    secs: 1745597011
    nsecs: 215581951
  frame_id: "base_link"
status: 
  status: 0
  service: 15
latitude: 40.09274054839647
longitude: -88.23577230282724
altitude: 200.809954452972
position_covariance: [3.001324148499407e-05, 0.0, 0.0, 0.0, 3.237311102566309e-05, 0.0, 0.0, 0.0, 5.2235536713851616e-05]
position_covariance_type: 2
---
header: 
  seq: 215450
  stamp: 
    secs: 1745597011
    nsecs: 225311462
  frame_id: "base_link"
status: 
  status: 0
  service: 15
latitude: 40.09274054840015
longitude: -88.23577230283387
altitude: 200.80996385236432
position_covariance: [3.1388350180350244e-05, 0.0, 0.0, 0.0, 3.37712190230377e-05, 0.0, 0.0, 0.0, 5.358047565096058e-05]
position_covariance_type: 2
---
header: 
  seq: 215451
  stamp: 
    secs: 1745597011
    nsecs: 235580425
  frame_id: "base_link"
status: 
  status: 0
  service: 15
latitude: 40.09274054837187
longitude: -88.23577230288683
altitude: 200.80997922439755
position_covariance: [3.283698242739774e-05, 0.0, 0.0, 0.0, 3.52431416104082e-05, 0.0, 0.0, 0.0, 5.4985019232844934e-05]
position_covariance_type: 2
---
header: 
  seq: 215452
  stamp: 
    secs: 1745597011
    nsecs: 245507919
  frame_id: "base_link"
status: 
  status: 0
  service: 15
latitude: 40.09274054839716
longitude: -88.23577230289176
altitude: 200.8099901719867
position_covariance: [3.436149927438237e-05, 0.0, 0.0, 0.0, 3.6791239836020395e-05, 0.0, 0.0, 0.0, 5.6450699048582464e-05]
position_covariance_type: 2
---
header: 
  seq: 215453
  stamp: 
    secs: 1745597011
    nsecs: 255603466
  frame_id: "base_link"
status: 
  status: 0
  service: 15
latitude: 40.09274054840079
longitude: -88.2357723029398
altitude: 200.8100110555177
position_covariance: [3.59643017873168e-05, 0.0, 0.0, 0.0, 3.841792931780219e-05, 0.0, 0.0, 0.0, 5.79790685151238e-05]
position_covariance_type: 2
---
header: 
  seq: 215454
  stamp: 
    secs: 1745597011
    nsecs: 265662796
  frame_id: "base_link"
status: 
  status: 0
  service: 15
latitude: 40.09274054851182
longitude: -88.23577230287675
altitude: 200.81002233765187
position_covariance: [3.764781649806537e-05, 0.0, 0.0, 0.0, 4.012563658761792e-05, 0.0, 0.0, 0.0, 5.9571659221546724e-05]
position_covariance_type: 2
---
header: 
  seq: 215455
  stamp: 
    secs: 1745597011
    nsecs: 275526128
  frame_id: "base_link"
status: 
  status: 0
  service: 15
latitude: 40.09274054855507
longitude: -88.23577230291536
altitude: 200.8100416677061
position_covariance: [3.9414491766365245e-05, 0.0, 0.0, 0.0, 4.191678817733191e-05, 0.0, 0.0, 0.0, 6.122999911895022e-05]
position_covariance_type: 2
---
header: 
  seq: 215456
  stamp: 
    secs: 1745597011
    nsecs: 285549468
  frame_id: "base_link"
status: 
  status: 0
  service: 15
latitude: 40.09274054859181
longitude: -88.23577230296785
altitude: 200.81005578604066
position_covariance: [4.126678322791122e-05, 0.0, 0.0, 0.0, 4.3793868826469406e-05, 0.0, 0.0, 0.0, 6.295563071034849e-05]
position_covariance_type: 2
---
header: 
  seq: 215457
  stamp: 
    secs: 1745597011
    nsecs: 295557788
  frame_id: "base_link"
status: 
  status: 0
  service: 15
latitude: 40.09274054858483
longitude: -88.23577230307059
altitude: 200.81007021032622
position_covariance: [4.320720108808018e-05, 0.0, 0.0, 0.0, 4.575937782647088e-05, 0.0, 0.0, 0.0, 6.475010741269216e-05]
position_covariance_type: 2
---
header: 
  seq: 215458
  stamp: 
    secs: 1745597011
    nsecs: 305609503
  frame_id: "base_link"
status: 
  status: 0
  service: 15
latitude: 40.09274054866142
longitude: -88.23577230310448
altitude: 200.81009019223697
position_covariance: [4.5238262828206643e-05, 0.0, 0.0, 0.0, 4.781583629664965e-05, 0.0, 0.0, 0.0, 6.661496445303783e-05]
position_covariance_type: 2
---
header: 
  seq: 215459
  stamp: 
    secs: 1745597011
    nsecs: 315416878
  frame_id: "base_link"
status: 
  status: 0
  service: 15
latitude: 40.092740548807
longitude: -88.23577230307801
altitude: 200.8101166883875
position_covariance: [4.736254777526483e-05, 0.0, 0.0, 0.0, 4.996584539185278e-05, 0.0, 0.0, 0.0, 6.855178071418777e-05]
position_covariance_type: 2
---
header: 
  seq: 215460
  stamp: 
    secs: 1745597011
    nsecs: 325540212
  frame_id: "base_link"
status: 
  status: 0
  service: 15
latitude: 40.092740548929115
longitude: -88.23577230307754
altitude: 200.81013634270371
position_covariance: [4.958252975484356e-05, 0.0, 0.0, 0.0, 5.2211846195859835e-05, 0.0, 0.0, 0.0, 7.05619968357496e-05]
position_covariance_type: 2
---
header: 
  seq: 215461
  stamp: 
    secs: 1745597011
    nsecs: 335533192
  frame_id: "base_link"
status: 
  status: 0
  service: 15
latitude: 40.09274054905128
longitude: -88.23577230307315
altitude: 200.81016052067685
position_covariance: [5.19008535775356e-05, 0.0, 0.0, 0.0, 5.45565017091576e-05, 0.0, 0.0, 0.0, 7.264720625244081e-05]
position_covariance_type: 2
---
header: 
  seq: 215462
  stamp: 
    secs: 1745597011
    nsecs: 345557533
  frame_id: "base_link"
status: 
  status: 0
  service: 15
latitude: 40.09274054915106
longitude: -88.23577230309425
altitude: 200.81017555086098
position_covariance: [5.43201167602092e-05, 0.0, 0.0, 0.0, 5.7002420362550765e-05, 0.0, 0.0, 0.0, 7.480893691536039e-05]
position_covariance_type: 2
---
header: 
  seq: 215463
  stamp: 
    secs: 1745597011
    nsecs: 355658546
  frame_id: "base_link"
status: 
  status: 0
  service: 15
latitude: 40.092740549234435
longitude: -88.23577230314818
altitude: 200.81019560917872
position_covariance: [5.6842956837499514e-05, 0.0, 0.0, 0.0, 5.955222877673805e-05, 0.0, 0.0, 0.0, 7.704874587943777e-05]
position_covariance_type: 2
---
header: 
  seq: 215464
  stamp: 
    secs: 1745597011
    nsecs: 365562544
  frame_id: "base_link"
status: 
  status: 0
  service: 15
latitude: 40.09274054932235
longitude: -88.23577230319641
altitude: 200.81021757834714
position_covariance: [5.947205136180855e-05, 0.0, 0.0, 0.0, 6.22086226940155e-05, 0.0, 0.0, 0.0, 7.936816109577194e-05]
position_covariance_type: 2
---
header: 
  seq: 215465
  stamp: 
    secs: 1745597011
    nsecs: 375550560
  frame_id: "base_link"
status: 
  status: 0
  service: 15
latitude: 40.092740549405605
longitude: -88.23577230323309
altitude: 200.81023603780721
position_covariance: [6.221007788553834e-05, 0.0, 0.0, 0.0, 6.497425783891231e-05, 0.0, 0.0, 0.0, 8.176871779141948e-05]
position_covariance_type: 2
---
header: 
  seq: 215466
  stamp: 
    secs: 1745597011
    nsecs: 385625017
  frame_id: "base_link"
status: 
  status: 0
  service: 15
latitude: 40.09274054949111
longitude: -88.2357723032699
altitude: 200.81025915343375
position_covariance: [6.505976489279419e-05, 0.0, 0.0, 0.0, 6.785187724744901e-05, 0.0, 0.0, 0.0, 8.425195119343698e-05]
position_covariance_type: 2
---
header: 
  seq: 215467
  stamp: 
    secs: 1745597011
    nsecs: 395568124
  frame_id: "base_link"
status: 
  status: 0
  service: 15
latitude: 40.0927405495466
longitude: -88.23577230332255
altitude: 200.81028167773968
position_covariance: [6.802380812587216e-05, 0.0, 0.0, 0.0, 7.08441948518157e-05, 0.0, 0.0, 0.0, 8.68194256327115e-05]
position_covariance_type: 2
---
header: 
  seq: 215468
  stamp: 
    secs: 1745597011
    nsecs: 405271569
  frame_id: "base_link"
status: 
  status: 0
  service: 15
latitude: 40.09274054960984
longitude: -88.23577230334361
altitude: 200.81030142651963
position_covariance: [7.110503065632656e-05, 0.0, 0.0, 0.0, 7.395399734377861e-05, 0.0, 0.0, 0.0, 8.947264723246917e-05]
position_covariance_type: 2
---
header: 
  seq: 215469
  stamp: 
    secs: 1745597011
    nsecs: 415580872
  frame_id: "base_link"
status: 
  status: 0
  service: 15
latitude: 40.09274054965162
longitude: -88.23577230337337
altitude: 200.81031541566207
position_covariance: [7.430617552017793e-05, 0.0, 0.0, 0.0, 7.718406413914636e-05, 0.0, 0.0, 0.0, 9.221319487551227e-05]
position_covariance_type: 2
---
header: 
  seq: 215470
  stamp: 
    secs: 1745597011
    nsecs: 425510633
  frame_id: "base_link"
status: 
  status: 0
  service: 15
latitude: 40.092740549652504
longitude: -88.23577230341175
altitude: 200.81032812821522
position_covariance: [7.763005851302296e-05, 0.0, 0.0, 0.0, 8.053720375755802e-05, 0.0, 0.0, 0.0, 9.504254558123648e-05]
position_covariance_type: 2
---
header: 
  seq: 215471
  stamp: 
    secs: 1745597011
    nsecs: 435601843
  frame_id: "base_link"
status: 
  status: 0
  service: 15
latitude: 40.09274054965408
longitude: -88.23577230343561
altitude: 200.81034164986445
position_covariance: [8.107953908620402e-05, 0.0, 0.0, 0.0, 8.401628292631358e-05, 0.0, 0.0, 0.0, 9.796230006031692e-05]
position_covariance_type: 2
---
header: 
  seq: 215472
  stamp: 
    secs: 1745597011
    nsecs: 445560673
  frame_id: "base_link"
status: 
  status: 0
  service: 15
latitude: 40.09274054963833
longitude: -88.23577230346743
altitude: 200.81035059048418
position_covariance: [8.465746941510588e-05, 0.0, 0.0, 0.0, 8.762413199292496e-05, 0.0, 0.0, 0.0, 0.00010097396443597972]
position_covariance_type: 2
---
header: 
  seq: 215473
  stamp: 
    secs: 1745597011
    nsecs: 455615856
  frame_id: "base_link"
status: 
  status: 0
  service: 15
latitude: 40.09274054963411
longitude: -88.23577230348285
altitude: 200.81036650816472
position_covariance: [8.836675260681659e-05, 0.0, 0.0, 0.0, 9.136369044426829e-05, 0.0, 0.0, 0.0, 0.00010407908848719671]
position_covariance_type: 2
---
header: 
  seq: 215474
  stamp: 
    secs: 1745597011
    nsecs: 465510425
  frame_id: "base_link"
status: 
  status: 0
  service: 15
latitude: 40.092740549547884
longitude: -88.23577230356759
altitude: 200.81037877068883
position_covariance: [9.22103354241699e-05, 0.0, 0.0, 0.0, 9.523787593934685e-05, 0.0, 0.0, 0.0, 0.0001072792147169821]
position_covariance_type: 2
---
header: 
  seq: 215475
  stamp: 
    secs: 1745597011
    nsecs: 475609504
  frame_id: "base_link"
status: 
  status: 0
  service: 15
latitude: 40.09274054956536
longitude: -88.2357723035408
altitude: 200.81039455552894
position_covariance: [9.619112825021148e-05, 0.0, 0.0, 0.0, 9.924962796503678e-05, 0.0, 0.0, 0.0, 0.00011057587107643485]
position_covariance_type: 2
---
header: 
  seq: 215476
  stamp: 
    secs: 1745597011
    nsecs: 485347073
  frame_id: "base_link"
status: 
  status: 0
  service: 15
latitude: 40.09274054949845
longitude: -88.23577230359824
altitude: 200.81041356045907
position_covariance: [0.00010031209967564791, 0.0, 0.0, 0.0, 0.00010340190056012943, 0.0, 0.0, 0.0, 0.00011397060006856918]
position_covariance_type: 2
---
header: 
  seq: 215477
  stamp: 
    secs: 1745597011
    nsecs: 495329114
  frame_id: "base_link"
status: 
  status: 0
  service: 15
latitude: 40.09274054945473
longitude: -88.2357723036338
altitude: 200.81043458252617
position_covariance: [0.00010457627649884671, 0.0, 0.0, 0.0, 0.0001076977132470347, 0.0, 0.0, 0.0, 0.00011746495147235692]
position_covariance_type: 2
---
header: 
  seq: 215478
  stamp: 
    secs: 1745597011
    nsecs: 505643634
  frame_id: "base_link"
status: 
  status: 0
  service: 15
latitude: 40.09274054947179
longitude: -88.23577230361742
altitude: 200.81045193850744
position_covariance: [0.00010898666369030252, 0.0, 0.0, 0.0, 0.00011214009282412007, 0.0, 0.0, 0.0, 0.00012106043141102418]
position_covariance_type: 2
---
header: 
  seq: 215479
  stamp: 
    secs: 1745597011
    nsecs: 515562001
  frame_id: "base_link"
status: 
  status: 0
  service: 15
latitude: 40.09274054945466
longitude: -88.2357723036606
altitude: 200.8104720682598
position_covariance: [0.00011354633170412853, 0.0, 0.0, 0.0, 0.00011673211702145636, 0.0, 0.0, 0.0, 0.00012475861876737326]
position_covariance_type: 2
---
header: 
  seq: 215480
  stamp: 
    secs: 1745597011
    nsecs: 525575221
  frame_id: "base_link"
status: 
  status: 0
  service: 15
latitude: 40.092740549421215
longitude: -88.23577230374758
altitude: 200.81049755605713
position_covariance: [0.00011825834371848032, 0.0, 0.0, 0.0, 0.00012147681991336867, 0.0, 0.0, 0.0, 0.00012856103421654552]
position_covariance_type: 2
---
header: 
  seq: 215481
  stamp: 
    secs: 1745597011
    nsecs: 535622941
  frame_id: "base_link"
status: 
  status: 0
  service: 15
latitude: 40.09274054946808
longitude: -88.23577230377032
altitude: 200.810519937609
position_covariance: [0.00012312577746342868, 0.0, 0.0, 0.0, 0.00012637734471354634, 0.0, 0.0, 0.0, 0.00013246922753751278]
position_covariance_type: 2
---
header: 
  seq: 215482
  stamp: 
